[
  {
    "name": "Agra Fort",
    "type": "UNESCO Heritage",
    "country": "India",
    "state": "Uttar Pradesh",
    "city": "Agra",
    "coordinates": { "lat": 27.1795, "long": 78.0211 },
    "heritage": { "unesco": true, "national": true, "state": false },
    "monsoonFriendly": "Medium",
    "bestVisitMonths": [
      "October",
      "November",
      "December",
      "January",
      "February"
    ],
    "description": "Mughal imperial fortress",
    "others": ["ASI Protected"]
  },
  {
    "name": "Taj Mahal",
    "type": "UNESCO Heritage",
    "country": "India",
    "state": "Uttar Pradesh",
    "city": "Agra",
    "coordinates": { "lat": 27.1751, "long": 78.0421 },
    "heritage": { "unesco": true, "national": true, "state": false },
    "monsoonFriendly": "Medium",
    "bestVisitMonths": [
      "October",
      "November",
      "December",
      "January",
      "February"
    ],
    "description": "White marble mausoleum"
  },
  {
    "name": "Fatehpur Sikri",
    "type": "UNESCO Heritage",
    "country": "India",
    "state": "Uttar Pradesh",
    "city": "Fatehpur Sikri",
    "coordinates": { "lat": 27.0937, "long": 77.66 },
    "heritage": { "unesco": true, "national": true, "state": false },
    "monsoonFriendly": "Medium",
    "bestVisitMonths": ["October", "November", "December", "January"],
    "description": "Abandoned Mughal capital"
  },
  {
    "name": "Ajanta Caves",
    "type": "UNESCO Heritage",
    "country": "India",
    "state": "Maharashtra",
    "city": "Aurangabad",
    "coordinates": { "lat": 20.5519, "long": 75.7033 },
    "heritage": { "unesco": true, "national": true, "state": false },
    "monsoonFriendly": "High",
    "bestVisitMonths": ["October", "November", "December", "January"],
    "description": "Buddhist rock-cut caves"
  },
  {
    "name": "Ellora Caves",
    "type": "UNESCO Heritage",
    "country": "India",
    "state": "Maharashtra",
    "city": "Aurangabad",
    "coordinates": { "lat": 20.0268, "long": 75.1795 },
    "heritage": { "unesco": true, "national": true, "state": false },
    "monsoonFriendly": "High",
    "bestVisitMonths": ["October", "November", "December", "January"],
    "description": "Multi-faith cave complex"
  },
  {
    "name": "Elephanta Caves",
    "type": "UNESCO Heritage",
    "country": "India",
    "state": "Maharashtra",
    "city": "Mumbai",
    "coordinates": { "lat": 18.9633, "long": 72.9312 },
    "heritage": { "unesco": true, "national": true, "state": false },
    "monsoonFriendly": "Low",
    "bestVisitMonths": ["November", "December", "January"],
    "description": "Shaivite rock caves"
  },
  {
    "name": "Chhatrapati Shivaji Maharaj Terminus",
    "type": "UNESCO Heritage",
    "country": "India",
    "state": "Maharashtra",
    "city": "Mumbai",
    "coordinates": { "lat": 18.9401, "long": 72.8353 },
    "heritage": { "unesco": true, "national": true, "state": false },
    "monsoonFriendly": "High",
    "bestVisitMonths": ["October", "November", "December"],
    "description": "Victorian Gothic railway station"
  },
  {
    "name": "Victorian Gothic and Art Deco Ensembles of Mumbai",
    "type": "UNESCO Heritage",
    "country": "India",
    "state": "Maharashtra",
    "city": "Mumbai",
    "coordinates": { "lat": 18.9322, "long": 72.8264 },
    "heritage": { "unesco": true, "national": false, "state": false },
    "monsoonFriendly": "High",
    "bestVisitMonths": ["October", "November", "December"],
    "description": "Urban architectural ensemble"
  },
  {
    "name": "Group of Monuments at Hampi",
    "type": "UNESCO Heritage",
    "country": "India",
    "state": "Karnataka",
    "city": "Hampi",
    "coordinates": { "lat": 15.335, "long": 76.46 },
    "heritage": { "unesco": true, "national": true, "state": false },
    "monsoonFriendly": "High",
    "bestVisitMonths": ["October", "November", "December"],
    "description": "Vijayanagara ruins"
  },
  {
    "name": "Group of Monuments at Pattadakal",
    "type": "UNESCO Heritage",
    "country": "India",
    "state": "Karnataka",
    "city": "Bagalkot",
    "coordinates": { "lat": 15.9486, "long": 75.816 },
    "heritage": { "unesco": true, "national": true, "state": false },
    "monsoonFriendly": "Medium",
    "bestVisitMonths": ["October", "November", "December"],
    "description": "Chalukyan temple architecture"
  },
  {
    "name": "Hoysala Temples",
    "type": "UNESCO Heritage",
    "country": "India",
    "state": "Karnataka",
    "city": "Belur–Halebidu–Somanathapura",
    "coordinates": { "lat": 13.1651, "long": 75.865 },
    "heritage": { "unesco": true, "national": true, "state": false },
    "monsoonFriendly": "Medium",
    "bestVisitMonths": ["October", "November", "December"],
    "description": "Hoysala dynasty temples"
  },
  {
    "name": "Khajuraho Group of Monuments",
    "type": "UNESCO Heritage",
    "country": "India",
    "state": "Madhya Pradesh",
    "city": "Chhatarpur",
    "coordinates": { "lat": 24.8318, "long": 79.9199 },
    "heritage": { "unesco": true, "national": true, "state": false },
    "monsoonFriendly": "Medium",
    "bestVisitMonths": ["October", "November", "December"],
    "description": "Nagara-style temples"
  },
  {
    "name": "Sanchi Stupa",
    "type": "UNESCO Heritage",
    "country": "India",
    "state": "Madhya Pradesh",
    "city": "Sanchi",
    "coordinates": { "lat": 23.4793, "long": 77.7399 },
    "heritage": { "unesco": true, "national": true, "state": false },
    "monsoonFriendly": "Medium",
    "bestVisitMonths": ["October", "November", "December"],
    "description": "Buddhist stupas"
  },
  {
    "name": "Rock Shelters of Bhimbetka",
    "type": "UNESCO Heritage",
    "country": "India",
    "state": "Madhya Pradesh",
    "city": "Raisen",
    "coordinates": { "lat": 22.9398, "long": 77.6146 },
    "heritage": { "unesco": true, "national": true, "state": false },
    "monsoonFriendly": "High",
    "bestVisitMonths": ["October", "November", "December"],
    "description": "Prehistoric cave art"
  },
  {
    "name": "Sun Temple, Konark",
    "type": "UNESCO Heritage",
    "country": "India",
    "state": "Odisha",
    "city": "Konark",
    "coordinates": { "lat": 19.8876, "long": 86.0945 },
    "heritage": { "unesco": true, "national": true, "state": false },
    "monsoonFriendly": "Medium",
    "bestVisitMonths": ["October", "November", "December"],
    "description": "13th century chariot temple"
  },
  {
    "name": "Brihadeeswarar Temple",
    "type": "UNESCO Heritage",
    "country": "India",
    "state": "Tamil Nadu",
    "city": "Thanjavur",
    "coordinates": { "lat": 10.7828, "long": 79.1318 },
    "heritage": { "unesco": true, "national": true, "state": false },
    "monsoonFriendly": "High",
    "bestVisitMonths": ["October", "November", "December"],
    "description": "Great Living Chola Temples"
  },
  {
    "name": "Group of Monuments at Mahabalipuram",
    "type": "UNESCO Heritage",
    "country": "India",
    "state": "Tamil Nadu",
    "city": "Mahabalipuram",
    "coordinates": { "lat": 12.6208, "long": 80.1933 },
    "heritage": { "unesco": true, "national": true, "state": false },
    "monsoonFriendly": "High",
    "bestVisitMonths": ["November", "December", "January"],
    "description": "Pallava rock-cut monuments"
  },
  {
    "name": "Nilgiri Mountain Railway",
    "type": "UNESCO Heritage",
    "country": "India",
    "state": "Tamil Nadu",
    "city": "Ooty",
    "coordinates": { "lat": 11.4064, "long": 76.6932 },
    "heritage": { "unesco": true, "national": true, "state": false },
    "monsoonFriendly": "Low",
    "bestVisitMonths": ["March", "April", "May"],
    "description": "Mountain Railways of India"
  },
  {
    "name": "Kaziranga National Park",
    "type": "UNESCO Heritage",
    "country": "India",
    "state": "Assam",
    "city": "Golaghat",
    "coordinates": { "lat": 26.5775, "long": 93.1711 },
    "heritage": { "unesco": true, "national": false, "state": false },
    "monsoonFriendly": "Low",
    "bestVisitMonths": ["November", "December", "January"],
    "description": "One-horned rhinoceros habitat"
  },
  {
    "name": "Manas Wildlife Sanctuary",
    "type": "UNESCO Heritage",
    "country": "India",
    "state": "Assam",
    "city": "Chirang",
    "coordinates": { "lat": 26.7194, "long": 91.0474 },
    "heritage": { "unesco": true, "national": false, "state": false },
    "monsoonFriendly": "Low",
    "bestVisitMonths": ["November", "December", "January"],
    "description": "Himalayan foothill biodiversity"
  },
  {
    "name": "Sundarbans National Park",
    "type": "UNESCO Heritage",
    "country": "India",
    "state": "West Bengal",
    "city": "South 24 Parganas",
    "coordinates": { "lat": 21.9497, "long": 88.8807 },
    "heritage": { "unesco": true, "national": false, "state": false },
    "monsoonFriendly": "Medium",
    "bestVisitMonths": ["November", "December", "January"],
    "description": "Mangrove forest ecosystem"
  },
  {
    "name": "Santiniketan",
    "type": "UNESCO Heritage",
    "country": "India",
    "state": "West Bengal",
    "city": "Birbhum",
    "coordinates": { "lat": 23.6849, "long": 87.6857 },
    "heritage": { "unesco": true, "national": false, "state": false },
    "monsoonFriendly": "Medium",
    "bestVisitMonths": ["October", "November", "December"],
    "description": "Rabindranath Tagore’s Visva-Bharati"
  },
  {
    "name": "Nanda Devi and Valley of Flowers",
    "type": "UNESCO Heritage",
    "country": "India",
    "state": "Uttarakhand",
    "city": "Chamoli",
    "coordinates": { "lat": 30.728, "long": 79.605 },
    "heritage": { "unesco": true, "national": false, "state": false },
    "monsoonFriendly": "Low",
    "bestVisitMonths": ["July", "August", "September"],
    "description": "Himalayan alpine meadows"
  },
  {
    "name": "Western Ghats",
    "type": "UNESCO Heritage",
    "country": "India",
    "state": "Multiple States",
    "city": "Sahyadri Range",
    "coordinates": { "lat": 10.1632, "long": 76.6413 },
    "heritage": { "unesco": true, "national": false, "state": false },
    "monsoonFriendly": "High",
    "bestVisitMonths": ["September", "October", "November"],
    "description": "Global biodiversity hotspot"
  }
]
